Title,Address,Latitude,Longitude,Found Address,Match Quality,Source
Aavin Milk Processing Plant,"Plot No.29 & 30,Industrial Estate, Dairy Road, Ambattur, Sidco Industrial Estate, Korattur, Chennai, Tamil Nadu 600098",13.1126747,80.1767529,"Plot No.29 & 30,Industrial Estate, Dairy Road, Ambattur, Chennai, Tamil Nadu 600098, India",Match,Google
Cheyyar Co-op Milk Chilling Factory (AAVIN) Anakkavoor,"SH 5, Anakavoor, Tamil Nadu 604407",12.7252412,79.5138586,"SH 5, Tamil Nadu 604407, India",Partial Match,Google
Aavin Milk Dairy,"Kotapattu, Ramanathapuram Rd, Kajamalai, Edamalaipatti Pudur, Tiruchirappalli, Tamil Nadu 620020",10.7754299,78.7018919,"Kotapattu, Ramanathapuram Rd, Kajamalai, Edamalaipatti Pudur, Tiruchirappalli, Tamil Nadu 620020, India",Match,Google
Aavin Dairy Plant,"Siruvani Main Rd, Kurinji Nagar, Coimbatore, Tamil Nadu 641010",10.9734193,76.8714391,"Siruvani Main Rd, Coimbatore, Tamil Nadu 641010, India",Match,Google
Nandhini Hi Tech Products Plant,"Bengaluru - Mangaluru Highway, Karnataka 573116",12.9074452,76.42519,"Shettihalli Bus Stop, Bengaluru - Mangaluru Highway, Shettihalli, Karnataka 573116, India",Match,Google
Mother Dairy,"Garuda Nagar, Tirupati, Andhra Pradesh 517502",13.6225336,79.385975,"Tirupati, Andhra Pradesh 517502, India",Partial Match,Google